{
    "1": {
        "name": "C. A. Wallenborg & Son",
        "location": "Stockholm",
        "business": "Fabrik för tillverkning av byggnadsplattor av träull",
        "contact": {
            "office": "Birger Järlsg. 73—75",
            "phone": [
                "235530"
            ],
            "telegraph": "Grobnellaw, Stockholm"
        },
        "financials": {
            "capital": "50,000 kr",
            "employees": {
                "industriarb": 45
            },
            "annual_turnover": "Not available",
            "annual_production_value": "Not available"
        },
        "foundation_year": 1904,
        "current_name_year": 1945,
        "owners": [
            "Wallenborgs Motor AB"
        ],
        "coordinates": {
            "Latitude": 59.32932349999999,
            "Longitude": 18.0685808
        },
        "cluster": 1
    },
    "2": {
        "name": "Vallevikens Cementfabrik",
        "location": "Stockholm",
        "business": "Not available",
        "coordinates": {
            "Latitude": 59.32932349999999,
            "Longitude": 18.0685808
        },
        "cluster": 11
    },
    "3": {
        "name": "Wallins Konservfabrik",
        "location": "Göteborg",
        "business": "Not available",
        "coordinates": {
            "Latitude": 57.70887,
            "Longitude": 11.97456
        },
        "cluster": 11
    },
    "4": {
        "name": "Wallins Mek. Stenhuggeri",
        "location": "Älmhult",
        "business": "Not available",
        "coordinates": {
            "Latitude": 56.5524461,
            "Longitude": 14.1374047
        },
        "cluster": 11
    },
    "5": {
        "name": "Wallins Nysilverfabrik",
        "location": "Lidköping",
        "business": "Not available",
        "coordinates": {
            "Latitude": 58.5035047,
            "Longitude": 13.1570768
        },
        "cluster": 11
    },
    "6": {
        "name": "R. Wallins Piskfabrik",
        "location": "Norrköping",
        "business": "Tillverkar piskor, ridspön och pisk-slängar",
        "contact": {
            "phone": [
                "24349"
            ],
            "postgiro": "30114"
        },
        "financials": {
            "employees": {
                "industriarb": 4
            },
            "annual_turnover": "Not available",
            "annual_production_value": "25,000 kr"
        },
        "foundation_year": 1922,
        "coordinates": {
            "Latitude": 58.587745,
            "Longitude": 16.192421
        },
        "cluster": 9
    },
    "7": {
        "name": "Wallnäs AB.",
        "location": "Vallnäs",
        "business": "Sågverk med hyvleri samt torvströfabrik",
        "contact": {
            "phone": [
                "Ingatorp 14"
            ],
            "postgiro": "6339"
        },
        "financials": {
            "capital": "900,000 kr",
            "employees": {
                "industriarb": 50
            },
            "annual_turnover": "2,000,000 kr",
            "annual_production_value": "Not available"
        },
        "foundation_year": 1896,
        "coordinates": {
            "Latitude": 57.6179156,
            "Longitude": 15.47204
        },
        "cluster": 8
    },
    "8": {
        "name": "Wallsta Ångsågs AB.",
        "location": "Vallsta",
        "business": "Sågverk och hyvleri",
        "contact": {
            "phone": [
                "Vallsta 65"
            ]
        },
        "financials": {
            "capital": "100,000 kr",
            "employees": {
                "industriarb": 60
            },
            "annual_turnover": "1,200,000 kr",
            "annual_production_value": "Not available"
        },
        "foundation_year": 1928,
        "coordinates": {
            "Latitude": 61.51663499999999,
            "Longitude": 16.3633657
        },
        "cluster": 8
    },
    "9": {
        "name": "Vallviks Sulfitfabrik",
        "location": "Vallvik",
        "business": "Not available",
        "coordinates": {
            "Latitude": 61.1847212,
            "Longitude": 17.1791565
        },
        "cluster": 11
    },
    "10": {
        "name": "Wallåkra Stenkärlsfabrik",
        "location": "Vallåkra",
        "business": "Tillverkar saltglaserade hushållskärl vid lergodsfabrik",
        "contact": {
            "phone": [
                "Hälsingborg 99031"
            ]
        },
        "financials": {
            "employees": {
                "industriarb": 6
            },
            "annual_turnover": "Not available",
            "annual_production_value": "30,000 kr"
        },
        "foundation_year": 1928,
        "coordinates": {
            "Latitude": 55.96226249999999,
            "Longitude": 12.8574214
        },
        "cluster": 0
    },
    "11": {
        "name": "Valåsens Sågverk",
        "location": "Valåsen",
        "business": "Not available",
        "coordinates": {
            "Latitude": 59.3097793,
            "Longitude": 14.5881615
        },
        "cluster": 11
    },
    "12": {
        "name": "Vandenberghs Margarin",
        "location": "Stockholm",
        "business": "Margarinfabrik",
        "contact": {
            "office": "Stockholm, Norrmalmstorg 1",
            "phone": [
                "108509",
                "118509"
            ],
            "telegraph": "Vandenbergh, Stockholm",
            "postgiro": "965"
        },
        "financials": {
            "capital": "2,500,000 kr",
            "employees": {
                "industriarb": 26
            },
            "annual_turnover": "6,000,000 kr",
            "annual_production_value": "Not available"
        },
        "foundation_year": 1920,
        "coordinates": {
            "Latitude": 59.32932349999999,
            "Longitude": 18.0685808
        },
        "cluster": 13
    },
    "13": {
        "name": "Vansbro Sågverk o. Kolugnar",
        "location": "Vansbro",
        "business": "Not available",
        "coordinates": {
            "Latitude": 60.5099434,
            "Longitude": 14.2253417
        },
        "cluster": 11
    }
}