{
    "1": {
        "name": "AB. Kräddin",
        "location": "Stockholm",
        "business": "Tillverkar fettemulsion såsom ersättning för grädde",
        "products": "Varunamn: »Gräddin» o. »Kräddin»",
        "contact": {
            "office": "Stockholm, Dalag. 16",
            "telegraph": "Kräddin, Stockholm",
            "phone": "332754",
            "postgiro": "53432",
            "factory_office": "Örebro",
            "factory_phone": "14313—14"
        },
        "financials": {
            "capital": 50000,
            "employees": 12,
            "foundation_year": 1926,
            "current_name_year": 1933,
            "employees_total": 0
        },
        "director": "Sv. E. Hemberg",
        "coordinates": {
            "Latitude": 59.32932349999999,
            "Longitude": 18.0685808
        },
        "cluster": 13
    },
    "2": {
        "name": "Kullsbergs Kalkförädlings AB.",
        "location": "Rättvik",
        "business": "Bryter kalksten samt tillverkar bränd kalk.",
        "contact": {
            "phone": "16",
            "postgiro": "11909"
        },
        "financials": {
            "capital": 25000,
            "employees": 120,
            "annual_production_value": "30,000 ton bränd kalk",
            "foundation_year": 1898,
            "employees_total": 0
        },
        "managing_director": "Waldemar Bergman",
        "coordinates": {
            "Latitude": 60.889025,
            "Longitude": 15.123373
        },
        "cluster": 14
    },
    "3": {
        "name": "AB. K. S.-Fabriken",
        "location": "Linköping",
        "business": "Tillverkar kragar, skjortor och pyjamas.",
        "products": "Varumärke: K. S.",
        "contact": {
            "phone": "29905",
            "postgiro": "33970"
        },
        "financials": {
            "capital": 150000,
            "employees": 45,
            "annual_production_value": 300000,
            "foundation_year": 1928,
            "employees_total": 0
        },
        "board": [
            {
                "name": "M. Fredrik Béen",
                "role": "dir."
            },
            {
                "name": "rådm. Gudmund Hammar",
                "role": "styrelse"
            }
        ],
        "director": "M. F. Béen",
        "coordinates": {
            "Latitude": 58.41080700000001,
            "Longitude": 15.6213727
        },
        "cluster": 9
    },
    "4": {
        "name": "C. A. Kullgrens Enka",
        "location": "Uddevalla",
        "predecessor": "Granit AB. C. A. Kullgrens Énka",
        "managing_director": "Uddevalla",
        "coordinates": {
            "Latitude": 58.3498003,
            "Longitude": 11.935649
        },
        "cluster": 4
    },
    "5": {
        "name": "AB. Kumla Skofabrik",
        "location": "Kumla",
        "business": "Skofabrik i Kumla",
        "products": "Varumärke för export: »Kufa»",
        "contact": {
            "phone": "70950",
            "postgiro": "28313"
        },
        "financials": {
            "capital": 400000,
            "annual_turnover": 2200000,
            "employees_total": 0
        },
        "board": [
            {
                "name": "fabr. Carl E. Nilsson",
                "role": "Styrelse"
            },
            {
                "name": "disp. Ragnwald Nilsson",
                "role": "styrelse"
            }
        ],
        "managing_director": "Carl E. Nilsson",
        "coordinates": {
            "Latitude": 59.12653590000001,
            "Longitude": 15.1401053
        },
        "cluster": 5
    },
    "6": {
        "name": "Kungsfors Spinneri",
        "location": "Skene",
        "predecessor": "Borås Wäfveri AB., Borås",
        "location_description": "Landskrona",
        "coordinates": {
            "Latitude": 57.48333299999999,
            "Longitude": 12.633333
        },
        "cluster": 4
    },
    "7": {
        "name": "Kungsgården-Mariebergs AB.",
        "location": "Stockholm",
        "business": "Tillverkar sågade trävaror",
        "products": "Årstillv.: 10,000 stds sågade trävaror",
        "contact": {
            "location": "Stockholm, Hamng. 12",
            "telegraph": "Kungsgarden, Stockholm",
            "phone": "102397",
            "postgiro": "55587"
        },
        "financials": {
            "capital": 1500000,
            "employees": 150,
            "foundation_year": 1886,
            "employees_total": 0
        },
        "coordinates": {
            "Latitude": 59.32932349999999,
            "Longitude": 18.0685808
        },
        "cluster": 8
    },
    "8": {
        "name": "AB. Krönleins Bryggeri",
        "location": "Stockholm",
        "coordinates": {
            "Latitude": 59.32932349999999,
            "Longitude": 18.0685808
        },
        "cluster": 4
    },
    "9": {
        "name": "AB. Krönleins Bryggeri",
        "location": "Trollhättan",
        "coordinates": {
            "Latitude": 58.28348939999999,
            "Longitude": 12.2858206
        },
        "cluster": 4
    },
    "10": {
        "name": "AB. Krönleins Bryggeri AB.",
        "location": "Jönköping",
        "coordinates": {
            "Latitude": 57.78261370000001,
            "Longitude": 14.1617876
        },
        "cluster": 4
    },
    "11": {
        "name": "AB. Kugghjul i Södertälje",
        "location": "Södertälje",
        "coordinates": {
            "Latitude": 59.197762,
            "Longitude": 17.6201942
        },
        "cluster": 4
    },
    "12": {
        "name": "Kullagerfabriken, AB. Svenska",
        "location": "Göteborg",
        "predecessor": "AB. Svenska Kullagerfabriken, Göteborg",
        "coordinates": {
            "Latitude": 57.70887,
            "Longitude": 11.97456
        },
        "cluster": 4
    }
}